zone_id,zone_name,latitude,longitude,radius_m,risk_level,zone_type,police_district,police_station,total_crimes_2023,theft_cases,chain_snatching,assault_cases,robbery_cases,night_risk,primary_concern,source,report_year
CP_001,Koyambedu Bus Terminus,13.0695,80.1966,700,high,crime,Koyambedu,Koyambedu PS,312,148,87,43,34,high,Highest footfall interchange; pickpocketing and bag-snatching dominant; inadequate CCTV coverage at night,Chennai City Police Crime Statistics 2023,2023
CP_002,Perambur-Vyasarpadi,13.1204,80.2416,900,high,crime,Perambur,Perambur PS,274,89,41,96,48,high,Elevated assault and property crime; narrow lanes limit police patrolling; gang-related incidents recorded,NCRB Crime in India 2023 - Tamil Nadu Chapter,2023
CP_003,Broadway-Parrys Corner,13.0878,80.2858,700,medium,crime,Chennai North,Park Town PS,187,102,54,21,18,medium,Crowded wholesale market; chain snatching near bus stops; poor lighting in by-lanes post 9 PM,Chennai City Police Crime Statistics 2023,2023
CP_004,Anna Nagar,13.0850,80.2101,1000,low,crime,Anna Nagar,Anna Nagar PS,64,38,12,9,5,low,Planned residential zone; active policing; well-lit roads; low violent crime rate,Chennai City Police Crime Statistics 2023,2023
CP_005,Mylapore-Alwarpet,13.0337,80.2686,900,low,crime,Mylapore,Mylapore PS,71,42,18,7,4,low,Dense cultural neighbourhood; moderate footfall; low violent crime; watch for narrow lanes after dark,Chennai City Police Crime Statistics 2023,2023
CP_006,Nungambakkam,13.0592,80.2452,800,low,crime,Nungambakkam,Nungambakkam PS,58,31,14,9,4,low,Commercial-residential mix; good street lighting; active police presence; generally safe,Chennai City Police Crime Statistics 2023,2023
CP_007,Adyar,13.0067,80.2561,900,low,crime,Adyar,Adyar PS,55,29,11,10,5,low,Calm residential area; low crime rate; ECR junction slightly elevated due to late-night traffic,NCRB Crime in India 2023 - Tamil Nadu Chapter,2023
